{"stops"=>
  {"8226"=>
    {"name"=>"Ashland",
     "parent_stop_mbta_id"=>nil,
     "mbta_id"=>"Ashland",
     "lat"=>42.2617,
     "lng"=>-71.4788,
     "num_stoppings"=>"4",
     "next_arrivals"=>
      [["2:35p", 72565],
       ["5:00p", 72567],
       ["6:05p", 72571],
       ["8:16p", 72577]]},
   "8228"=>
    {"name"=>"Auburndale",
     "parent_stop_mbta_id"=>nil,
     "mbta_id"=>"Auburndale",
     "lat"=>42.3461,
     "lng"=>-71.2467,
     "num_stoppings"=>"1",
     "next_arrivals"=>[["2:36p", 72563]]},
   "8230"=>
    {"name"=>"Back Bay",
     "parent_stop_mbta_id"=>nil,
     "mbta_id"=>"Back Bay",
     "lat"=>42.3472,
     "lng"=>-71.0758,
     "num_stoppings"=>"8",
     "next_arrivals"=>
      [["2:57p", 72563],
       ["3:29p", 72565],
       ["5:59p", 72567],
       ["6:24p", 72569],
       ["7:03p", 72571],
       ["7:26p", 72573],
       ["8:28p", 72575],
       ["8:56p", 72577]]},
   "8254"=>
    {"name"=>"Framingham",
     "parent_stop_mbta_id"=>nil,
     "mbta_id"=>"Framingham",
     "lat"=>42.2767,
     "lng"=>-71.4168,
     "num_stoppings"=>"8",
     "next_arrivals"=>
      [["2:09p", 72563],
       ["2:46p", 72565],
       ["5:11p", 72567],
       ["5:40p", 72569],
       ["6:16p", 72571],
       ["6:43p", 72573],
       ["7:45p", 72575],
       ["8:27p", 72577]]},
   "8257"=>
    {"name"=>"Grafton",
     "parent_stop_mbta_id"=>nil,
     "mbta_id"=>"Grafton",
     "lat"=>42.2463,
     "lng"=>-71.6846,
     "num_stoppings"=>"4",
     "next_arrivals"=>
      [["2:18p", 72565],
       ["4:43p", 72567],
       ["5:48p", 72571],
       ["7:59p", 72577]]},
   "8290"=>
    {"name"=>"Natick",
     "parent_stop_mbta_id"=>nil,
     "mbta_id"=>"Natick",
     "lat"=>42.2852,
     "lng"=>-71.3476,
     "num_stoppings"=>"7",
     "next_arrivals"=>
      [["2:19p", 72563],
       ["2:56p", 72565],
       ["5:21p", 72567],
       ["5:50p", 72569],
       ["6:26p", 72571],
       ["6:53p", 72573],
       ["7:55p", 72575]]},
   "8295"=>
    {"name"=>"Newtonville",
     "parent_stop_mbta_id"=>nil,
     "mbta_id"=>"Newtonville",
     "lat"=>42.3516,
     "lng"=>-71.2073,
     "num_stoppings"=>"1",
     "next_arrivals"=>[["2:42p", 72563]]},
   "8325"=>
    {"name"=>"South Station",
     "parent_stop_mbta_id"=>nil,
     "mbta_id"=>"South Station",
     "lat"=>42.3526,
     "lng"=>-71.0554,
     "num_stoppings"=>"8",
     "next_arrivals"=>
      [["3:03p", 72563],
       ["3:35p", 72565],
       ["6:05p", 72567],
       ["6:30p", 72569],
       ["7:09p", 72571],
       ["7:32p", 72573],
       ["8:34p", 72575],
       ["9:02p", 72577]]},
   "8327"=>
    {"name"=>"Southborough",
     "parent_stop_mbta_id"=>nil,
     "mbta_id"=>"Southborough",
     "lat"=>42.2675,
     "lng"=>-71.5236,
     "num_stoppings"=>"4",
     "next_arrivals"=>
      [["2:31p", 72565],
       ["4:56p", 72567],
       ["6:01p", 72571],
       ["8:12p", 72577]]},
   "8336"=>
    {"name"=>"Wellesley Farms",
     "parent_stop_mbta_id"=>nil,
     "mbta_id"=>"Wellesley Farms",
     "lat"=>42.3236,
     "lng"=>-71.2723,
     "num_stoppings"=>"7",
     "next_arrivals"=>
      [["2:31p", 72563],
       ["3:09p", 72565],
       ["5:34p", 72567],
       ["6:03p", 72569],
       ["6:39p", 72571],
       ["7:06p", 72573],
       ["8:08p", 72575]]},
   "8337"=>
    {"name"=>"Wellesley Hills",
     "parent_stop_mbta_id"=>nil,
     "mbta_id"=>"Wellesley Hills",
     "lat"=>42.31,
     "lng"=>-71.2768,
     "num_stoppings"=>"7",
     "next_arrivals"=>
      [["2:28p", 72563],
       ["3:06p", 72565],
       ["5:31p", 72567],
       ["6:00p", 72569],
       ["6:36p", 72571],
       ["7:03p", 72573],
       ["8:05p", 72575]]},
   "8338"=>
    {"name"=>"Wellesley Square",
     "parent_stop_mbta_id"=>nil,
     "mbta_id"=>"Wellesley Square",
     "lat"=>42.2964,
     "lng"=>-71.2943,
     "num_stoppings"=>"7",
     "next_arrivals"=>
      [["2:24p", 72563],
       ["3:02p", 72565],
       ["5:27p", 72567],
       ["5:56p", 72569],
       ["6:32p", 72571],
       ["6:59p", 72573],
       ["8:01p", 72575]]},
   "8343"=>
    {"name"=>"West Natick",
     "parent_stop_mbta_id"=>nil,
     "mbta_id"=>"West Natick",
     "lat"=>42.2819,
     "lng"=>-71.3905,
     "num_stoppings"=>"7",
     "next_arrivals"=>
      [["2:14p", 72563],
       ["2:51p", 72565],
       ["5:16p", 72567],
       ["5:45p", 72569],
       ["6:21p", 72571],
       ["6:48p", 72573],
       ["7:50p", 72575]]},
   "8344"=>
    {"name"=>"West Newton",
     "parent_stop_mbta_id"=>nil,
     "mbta_id"=>"West Newton",
     "lat"=>42.3486,
     "lng"=>-71.229,
     "num_stoppings"=>"1",
     "next_arrivals"=>[["2:39p", 72563]]},
   "8346"=>
    {"name"=>"Westborough",
     "parent_stop_mbta_id"=>nil,
     "mbta_id"=>"Westborough",
     "lat"=>42.2692,
     "lng"=>-71.652,
     "num_stoppings"=>"4",
     "next_arrivals"=>
      [["2:22p", 72565],
       ["4:47p", 72567],
       ["5:52p", 72571],
       ["8:03p", 72577]]},
   "8352"=>
    {"name"=>"Worcester / Union Station",
     "parent_stop_mbta_id"=>nil,
     "mbta_id"=>"Worcester / Union Station",
     "lat"=>42.2618,
     "lng"=>-71.7939,
     "num_stoppings"=>"4",
     "next_arrivals"=>
      [["2:05p", 72565],
       ["4:30p", 72567],
       ["5:35p", 72571],
       ["7:46p", 72577]]},
   "8354"=>
    {"name"=>"Yawkey",
     "parent_stop_mbta_id"=>nil,
     "mbta_id"=>"Yawkey",
     "lat"=>42.3468,
     "lng"=>-71.0989,
     "num_stoppings"=>"3",
     "next_arrivals"=>[["2:52p", 72563], ["6:19p", 72569], ["6:58p", 72571]]}},
 "first_stop"=>["Worcester / Union Station", "Framingham"],
 "ordered_trip_ids"=>[72565, 72563, 72567, 72571, 72569, 72573, 72575, 72577],
 "imminent_stop_ids"=>[],
 "ordered_stop_ids"=>
  [8352,
   8257,
   8346,
   8327,
   8226,
   8254,
   8343,
   8290,
   8338,
   8337,
   8336,
   8228,
   8344,
   8295,
   8354,
   8230,
   8325],
 "region"=>
  {"center_lat"=>42.30449925,
   "center_lng"=>-71.42465,
   "lat_span"=>0.10098500000000427,
   "lng_span"=>0.664649999999989},
 "grid"=>
  [{"stop"=>
     {"stop_id"=>8352,
      "name"=>"Worcester / Union Station",
      "lat"=>42.2618,
      "lng"=>-71.7939},
    "times"=>
     [["4:45a", -1],
      ["5:40a", -1],
      ["6:05a", -1],
      ["6:30a", -1],
      ["6:55a", -1],
      ["7:35a", -1],
      nil,
      ["8:30a", -1],
      nil,
      ["10:30a", -1],
      nil,
      ["2:05p", 1],
      nil,
      ["4:30p", 1],
      ["5:35p", 1],
      nil,
      nil,
      nil,
      ["7:46p", 1]]},
   {"stop"=>
     {"stop_id"=>8257, "name"=>"Grafton", "lat"=>42.2463, "lng"=>-71.6846},
    "times"=>
     [["5:00a", -1],
      ["5:54a", -1],
      ["6:19a", -1],
      ["6:44a", -1],
      ["7:09a", -1],
      ["7:49a", -1],
      nil,
      ["8:43a", -1],
      nil,
      ["10:43a", -1],
      nil,
      ["2:18p", 1],
      nil,
      ["4:43p", 1],
      ["5:48p", 1],
      nil,
      nil,
      nil,
      ["7:59p", 1]]},
   {"stop"=>
     {"stop_id"=>8346, "name"=>"Westborough", "lat"=>42.2692, "lng"=>-71.652},
    "times"=>
     [["5:06a", -1],
      ["5:59a", -1],
      ["6:24a", -1],
      ["6:49a", -1],
      ["7:14a", -1],
      ["7:54a", -1],
      nil,
      ["8:47a", -1],
      nil,
      ["10:47a", -1],
      nil,
      ["2:22p", 1],
      nil,
      ["4:47p", 1],
      ["5:52p", 1],
      nil,
      nil,
      nil,
      ["8:03p", 1]]},
   {"stop"=>
     {"stop_id"=>8327,
      "name"=>"Southborough",
      "lat"=>42.2675,
      "lng"=>-71.5236},
    "times"=>
     [["5:16a", -1],
      ["6:08a", -1],
      ["6:33a", -1],
      ["6:58a", -1],
      ["7:23a", -1],
      ["8:03a", -1],
      nil,
      ["8:56a", -1],
      nil,
      ["10:56a", -1],
      nil,
      ["2:31p", 1],
      nil,
      ["4:56p", 1],
      ["6:01p", 1],
      nil,
      nil,
      nil,
      ["8:12p", 1]]},
   {"stop"=>
     {"stop_id"=>8226, "name"=>"Ashland", "lat"=>42.2617, "lng"=>-71.4788},
    "times"=>
     [["5:23a", -1],
      ["6:13a", -1],
      ["6:38a", -1],
      ["7:03a", -1],
      ["7:28a", -1],
      ["8:08a", -1],
      nil,
      ["9:00a", -1],
      nil,
      ["11:00a", -1],
      nil,
      ["2:35p", 1],
      nil,
      ["5:00p", 1],
      ["6:05p", 1],
      nil,
      nil,
      nil,
      ["8:16p", 1]]},
   {"stop"=>
     {"stop_id"=>8254, "name"=>"Framingham", "lat"=>42.2767, "lng"=>-71.4168},
    "times"=>
     [["5:35a", -1],
      ["6:25a", -1],
      ["6:50a", -1],
      ["7:15a", -1],
      ["7:40a", -1],
      ["8:19a", -1],
      ["8:00a", -1],
      ["9:11a", -1],
      ["8:40a", -1],
      ["11:11a", -1],
      ["12:20p", -1],
      ["2:46p", 1],
      ["2:09p", 1],
      ["5:11p", 1],
      ["6:16p", 1],
      ["5:40p", 1],
      ["6:43p", 1],
      ["7:45p", 1],
      ["8:27p", 1]]},
   {"stop"=>
     {"stop_id"=>8343, "name"=>"West Natick", "lat"=>42.2819, "lng"=>-71.3905},
    "times"=>
     [["5:40a", -1],
      ["6:31a", -1],
      ["6:55a", -1],
      ["7:20a", -1],
      ["7:46a", -1],
      ["8:24a", -1],
      ["8:05a", -1],
      ["9:16a", -1],
      ["8:45a", -1],
      ["11:16a", -1],
      ["12:25p", -1],
      ["2:51p", 1],
      ["2:14p", 1],
      ["5:16p", 1],
      ["6:21p", 1],
      ["5:45p", 1],
      ["6:48p", 1],
      ["7:50p", 1],
      nil]},
   {"stop"=>
     {"stop_id"=>8290, "name"=>"Natick", "lat"=>42.2852, "lng"=>-71.3476},
    "times"=>
     [["5:45a", -1],
      nil,
      ["7:00a", -1],
      ["7:25a", -1],
      ["7:51a", -1],
      ["8:29a", -1],
      ["8:10a", -1],
      ["9:21a", -1],
      ["8:50a", -1],
      ["11:21a", -1],
      ["12:30p", -1],
      ["2:56p", 1],
      ["2:19p", 1],
      ["5:21p", 1],
      ["6:26p", 1],
      ["5:50p", 1],
      ["6:53p", 1],
      ["7:55p", 1],
      nil]},
   {"stop"=>
     {"stop_id"=>8338,
      "name"=>"Wellesley Square",
      "lat"=>42.2964,
      "lng"=>-71.2943},
    "times"=>
     [["5:51a", -1],
      nil,
      ["7:06a", -1],
      ["7:31a", -1],
      nil,
      ["8:35a", -1],
      ["8:16a", -1],
      ["9:27a", -1],
      ["8:56a", -1],
      ["11:27a", -1],
      ["12:35p", -1],
      ["3:02p", 1],
      ["2:24p", 1],
      ["5:27p", 1],
      ["6:32p", 1],
      ["5:56p", 1],
      ["6:59p", 1],
      ["8:01p", 1],
      nil]},
   {"stop"=>
     {"stop_id"=>8337,
      "name"=>"Wellesley Hills",
      "lat"=>42.31,
      "lng"=>-71.2768},
    "times"=>
     [["5:55a", -1],
      nil,
      ["7:10a", -1],
      ["7:35a", -1],
      nil,
      ["8:39a", -1],
      ["8:20a", -1],
      ["9:31a", -1],
      ["9:00a", -1],
      ["11:31a", -1],
      ["12:39p", -1],
      ["3:06p", 1],
      ["2:28p", 1],
      ["5:31p", 1],
      ["6:36p", 1],
      ["6:00p", 1],
      ["7:03p", 1],
      ["8:05p", 1],
      nil]},
   {"stop"=>
     {"stop_id"=>8336,
      "name"=>"Wellesley Farms",
      "lat"=>42.3236,
      "lng"=>-71.2723},
    "times"=>
     [["5:58a", -1],
      nil,
      ["7:13a", -1],
      ["7:38a", -1],
      nil,
      ["8:42a", -1],
      ["8:23a", -1],
      ["9:34a", -1],
      ["9:03a", -1],
      ["11:34a", -1],
      ["12:42p", -1],
      ["3:09p", 1],
      ["2:31p", 1],
      ["5:34p", 1],
      ["6:39p", 1],
      ["6:03p", 1],
      ["7:06p", 1],
      ["8:08p", 1],
      nil]},
   {"stop"=>
     {"stop_id"=>8228, "name"=>"Auburndale", "lat"=>42.3461, "lng"=>-71.2467},
    "times"=>
     [["6:03a", -1],
      nil,
      ["7:18a", -1],
      ["7:43a", -1],
      nil,
      nil,
      ["8:28a", -1],
      nil,
      ["9:08a", -1],
      ["11:39a", -1],
      ["12:47p", -1],
      nil,
      ["2:36p", 1],
      nil,
      nil,
      nil,
      nil,
      nil,
      nil]},
   {"stop"=>
     {"stop_id"=>8344, "name"=>"West Newton", "lat"=>42.3486, "lng"=>-71.229},
    "times"=>
     [["6:06a", -1],
      nil,
      ["7:21a", -1],
      ["7:46a", -1],
      nil,
      nil,
      ["8:31a", -1],
      nil,
      ["9:11a", -1],
      ["11:42a", -1],
      ["12:50p", -1],
      nil,
      ["2:39p", 1],
      nil,
      nil,
      nil,
      nil,
      nil,
      nil]},
   {"stop"=>
     {"stop_id"=>8295, "name"=>"Newtonville", "lat"=>42.3516, "lng"=>-71.2073},
    "times"=>
     [["6:10a", -1],
      nil,
      ["7:25a", -1],
      ["7:50a", -1],
      nil,
      nil,
      ["8:35a", -1],
      nil,
      ["9:15a", -1],
      ["11:45a", -1],
      ["12:53p", -1],
      nil,
      ["2:42p", 1],
      nil,
      nil,
      nil,
      nil,
      nil,
      nil]},
   {"stop"=>
     {"stop_id"=>8354, "name"=>"Yawkey", "lat"=>42.3468, "lng"=>-71.0989},
    "times"=>
     [["6:20a", -1],
      ["6:57a", -1],
      ["7:35a", -1],
      ["8:00a", -1],
      nil,
      nil,
      ["8:45a", -1],
      nil,
      nil,
      nil,
      ["1:04p", -1],
      nil,
      ["2:52p", 1],
      nil,
      ["6:58p", 1],
      ["6:19p", 1],
      nil,
      nil,
      nil]},
   {"stop"=>
     {"stop_id"=>8230, "name"=>"Back Bay", "lat"=>42.3472, "lng"=>-71.0758},
    "times"=>
     [["6:25a", -1],
      ["7:02a", -1],
      ["7:40a", -1],
      ["8:05a", -1],
      ["8:17a", -1],
      ["9:02a", -1],
      ["8:50a", -1],
      ["9:54a", -1],
      ["9:29a", -1],
      ["11:59a", -1],
      ["1:09p", -1],
      ["3:29p", 1],
      ["2:57p", 1],
      ["5:59p", 1],
      ["7:03p", 1],
      ["6:24p", 1],
      ["7:26p", 1],
      ["8:28p", 1],
      ["8:56p", 1]]},
   {"stop"=>
     {"stop_id"=>8325,
      "name"=>"South Station",
      "lat"=>42.3526,
      "lng"=>-71.0554},
    "times"=>
     [["6:31a", -1],
      ["7:08a", -1],
      ["7:46a", -1],
      ["8:11a", -1],
      ["8:23a", -1],
      ["9:08a", -1],
      ["8:56a", -1],
      ["10:00a", -1],
      ["9:35a", -1],
      ["12:05p", -1],
      ["1:15p", -1],
      ["3:35p", 1],
      ["3:03p", 1],
      ["6:05p", 1],
      ["7:09p", 1],
      ["6:30p", 1],
      ["7:32p", 1],
      ["8:34p", 1],
      ["9:02p", 1]]}]}
